[
  {
    "key" : "NORTE",
    "name" : "Região NORTE",
    "latitude" : -5.1263,
    "longitude" : -57.6987
  },  
  {
    "key" : "NORDESTE",
    "name" : "Região NORDESTE",
    "latitude" : -20.819264,
    "longitude" : -49.397753
  },
  {
    "key" : "SUL",
    "name" : "Região SUL",
    "latitude" : -26.7484,
    "longitude" : -51.6793
  },
  {
    "key" : "SUDESTE",
    "name" : "Região SUDESTE",
    "latitude" : -19.7722,
    "longitude" : -44.2335
  },
  {
    "key" : "CENTRO_OESTE",
    "name" : "Região CENTRO OESTE",
    "latitude" : -13.9938,
    "longitude" : -51.9109
  }
]
