[
  {
    "key" : "NORTE",
    "name" : "Região NORTE",
    "latitude" : -20.813898,
    "longitude" : -49.389966
  },  
  {
    "key" : "NORDESTE",
    "name" : "Região NORDESTE",
    "latitude" : -20.819264,
    "longitude" : -49.397753
  },
  {
    "key" : "SUL",
    "name" : "Região SUL",
    "latitude" : -33.4507,
    "longitude" : -53.2350
  },
  {
    "key" : "SUDESTE",
    "name" : "Região SUDESTE",
    "latitude" : -20.8171,
    "longitude" : -49.3819
  },
  {
    "key" : "CENTRO_OESTE",
    "name" : "Região CENTRO OESTE",
    "latitude" : -20.7361,
    "longitude" : -48.9182
  }
]
